ID,Location,Location_type,Latitude,Longitude,Latitude_normalised
1,Withywood School,Urban Traffic,51.40822835721291,-2.629068514063199,0.09093774496733553
2,Colston Avenue,Urban Traffic,51.45503494834262,-2.598137704102741,0.29381988672233417
3,Blackboy Hill,Urban Traffic,51.469682294439075,-2.615317505038476,0.35730848683935723
4,Three Lamps,Urban Traffic,51.44468970951661,-2.579659103227444,0.24897867612932068
5,Bedminster Parade,Urban Traffic,51.44329165406191,-2.596618469982965,0.2429188354509884
6,Church Road,Urban Traffic,51.458836838013994,-2.560292603143524,0.31029909404394235
7,St. Andrew's Rd,Urban Traffic,51.50158127753037,-2.69846376771532,0.49557392880316653
8,Higham Street,Urban Background,51.44516140127984,-2.580629034817171,0.25102321372248276
9,B.R.I.,Urban Traffic,51.4594298263055,-2.596741554985489,0.31286938877622605
10,Bath Road,Urban Traffic,51.44099689815386,-2.560708106833826,0.23297226634196633
11,Whitefriars,Urban Traffic,51.45802446458107,-2.595514278265848,0.30677787923213756
12,Galleries,Urban Traffic,51.45687074528707,-2.590764477613078,0.3017771082786909
13,Ferndown Close,Urban Background,51.49497318390387,-2.65822033958175,0.46693129203976697
14,Red Lion Knowle,Urban Traffic,51.43064383973732,-2.565470288722971,0.18809716190546083
15,Horsefair,Urban Traffic,51.45934523442524,-2.588608732180425,0.3125027271281987
16,Third Way,Urban Traffic,51.50565824309173,-2.690156413078141,0.5132454465314704
17,Anglesea Place,Urban Traffic,51.46905766946402,-2.617828391970034,0.3546010635967356
18,Hillcrest,Urban Background,51.42884193020902,-2.568122827930271,0.1802868246104861
19,Conham Vale,Urban Traffic,51.447341510013814,-2.536266353322119,0.2604728471722186
20,Newfoundland Way,Urban Traffic,51.46066862631371,-2.584696511353017,0.31823894021771487
21,Gloucester Road,Urban Traffic,51.47569783449867,-2.592548942254448,0.3833827131747294
22,Stokes Croft,Urban Traffic,51.46293704599897,-2.591317843423535,0.3280713555471927
23,Old Market,Urban Traffic,51.45649609300011,-2.584816027571559,0.30015318616522746
24,Easton Primary School,Urban Background,51.46065705946189,-2.574333651388526,0.3181888039523954
25,Filwood Bus Depot,Urban Background,51.42082044826369,-2.588614978817634,0.14551788720576775
26,59 Creswicke Rd,Urban Background,51.423385830095214,-2.58441999804329,0.15663747843932985
27,111 Creswicke Rd,Urban Background,51.42335583996142,-2.588619419498597,0.1565074868627301
28,RO 243 Creswicke Rd,Urban Background,51.42079532989251,-2.593590816661929,0.14540901217729954
29,Fishponds - Gloucester St,Urban Traffic,51.473538461775334,-2.556096069552758,0.374022959507917
30,Old Market,Urban Traffic,51.456470706218575,-2.584499097203317,0.3000431477179434
31,Lawrence Weston,Rural Industrial,51.49780072688456,-2.650986756390975,0.47918721501943723
32,Holesmouth,Rural Industrial,51.524574981389435,-2.693038199128974,0.5952396334232644
33,Chitening Wharf,Rural Industrial,51.543553926468135,-2.673083221367818,0.6775034542417229
34,Hallen,Rural Industrial,51.51586395508538,-2.655524178727409,0.5574818811324931
35,Severn Beach,Rural Industrial,51.5518770674711,-2.67033590145823,0.7135799262097756
36,Lower Over Farm,Rural Industrial,51.54126220436343,-2.596776465216437,0.6675700350866728
37,Northwick Oaze,Rural Industrial,51.598133210964164,-2.632273325229684,0.9140761647671306
38,Littleton Wharf,Rural Industrial,51.617956551694164,-2.598332027631088,1.0
39,Earthcott Green,Rural Industrial,51.552545930411746,-2.498797728020419,0.7164790979431341
40,Prince St Bridge (centre side),Urban Traffic,51.449541871157976,-2.598037269070913,0.27001026424933394
41,Prince St Bridge (Bedminster side),Urban Traffic,51.44873313639681,-2.597954871520248,0.266504821180383
42,Hotwells - Pump House,Urban Traffic,51.44886197306178,-2.61979907330831,0.26706326087647864
43,Victoria St - A,Urban Traffic,51.45355766741553,-2.59161400759143,0.28741664497308034
44,Portwall Lane - A,Urban Traffic,51.44960044049164,-2.588282384900144,0.2702641317404034
45,Portwall Lane - B,Urban Traffic,51.44983425484176,-2.588270977011198,0.27127759490830383
46,Portwall Lane - C,Urban Traffic,51.449701350090805,-2.58966500287416,0.27070152218280685
47,Portwall Lane - D,Urban Traffic,51.44996228019592,-2.589625169508948,0.2718325179954934
48,Redcliff St - A,Urban Traffic,51.45002699488331,-2.591050504382723,0.2721130223873717
49,Redcliffe St - B,Urban Traffic,51.45039544162687,-2.591083998465202,0.27371004670919163
50,Redcliffe Hill - A,Urban Traffic,51.44871862460868,-2.591983404809091,0.26644192015329454
51,Redcliffe Hill - B,Urban Traffic,51.44756738732572,-2.592069369074848,0.26145190742222074
52,Guinea St,Urban Traffic,51.44769500353198,-2.593495450919107,0.2620050570668444
53,Victoria St - B,Urban Traffic,51.45364954278661,-2.591226654189305,0.2878148767521657
54,Commercial Rd - A,Urban Traffic,51.446843895972314,-2.596434085668619,0.2583159500329453
55,Commercial Rd - B,Urban Traffic,51.44678254341722,-2.594361406166584,0.258050018729703
56,Clarence Rd - A,Urban Traffic,51.44616061531654,-2.59113050766827,0.25535428502985974
57,Clarence Rd - B,Urban Traffic,51.4459236336298,-2.589990830339366,0.2543270931108992
58,Clarence Rd - C,Urban Traffic,51.446223363190235,-2.587606259420371,0.255626264310937
59,Clarence Rd - D,Urban Traffic,51.44707747070038,-2.585818613483185,0.2593283745643139
60,Clarence Rd - E,Urban Traffic,51.44778713344087,-2.584144185475632,0.2624043921344774
61,Temple Gate - A,Urban Traffic,51.44876308905065,-2.584947934773203,0.26663465030093225
62,Temple Gate - B,Urban Traffic,51.44892642549889,-2.584647845586852,0.2673426285502668
63,Victoria St - C,Urban Traffic,51.45201589332606,-2.588903253779917,0.2807338590272561
64,Bath Bridge,Urban Traffic,51.44726189498118,-2.583101563152069,0.26012775756098033
65,York Rd - A,Urban Traffic,51.44668839868332,-2.584518742248739,0.2576419504472745
66,York Rd - B,Urban Traffic,51.44535828846307,-2.587998097887082,0.2518766168961279
67,York Rd - C,Urban Traffic,51.445327889355006,-2.590458012113929,0.2517448526295499
68,Temple Way - A,Urban Traffic,51.452380653666864,-2.586101922931736,0.28231490471725224
69,Temple Way - B,Urban Traffic,51.452366788421735,-2.58528152851718,0.2822548061166065
70,Victoria St - D,Urban Traffic,51.45200958740258,-2.588370754887676,0.28070652614033903
71,Pipe Lane,Urban Traffic,51.4505237042292,-2.585258060684857,0.2742659981433795
72,Redcliffe Way - B,Urban Traffic,51.44966003241171,-2.587160812563496,0.27052243160975853
73,Redcliffe Way - C,Urban Traffic,51.44953257819112,-2.58747574418285,0.26996998408848577
74,Redcliffe Way - D,Urban Traffic,51.44931399068805,-2.588034123581649,0.2690225213548524
75,St Nicholas Rd,Urban Background,51.46462637357127,-2.582573576031078,0.33539370882526753
76,Cotham Lawn Rd,Urban Background,51.46492091407712,-2.602499318975527,0.3366703881821237
77,The Limes Nursery School,Urban Background,51.46472635363646,-2.556377286182226,0.3358270702230609
78,Eastville Park,Urban Background,51.476385535827674,-2.554806282137306,0.38636353948891156
79,Novers Lane School,Urban Background,51.42234651159536,-2.599723966263029,0.1521325752167878
80,St Mathias,Urban Background,51.48408010627013,-2.529787099938691,0.4197154861607715
81,Farmwell Close,Urban Background,51.41098667591725,-2.609163408263021,0.10289361684076694
82,Blaise Castle,Urban Background,51.506209895355994,-2.63404839903744,0.5156365711610692
83,Petherton Rd,Urban Background,51.42299707765259,-2.566424654760687,0.15495243951065368
84,Henleaze Infants School,Urban Background,51.484634241797906,-2.606561704282838,0.4221173744415628
85,Summerleaze Office,Urban Background,51.47542263623407,-2.517579312888894,0.3821898723379807
86,Avon County School,Urban Background,51.49697239742335,-2.684248471031978,0.4755968391532652
87,Southmead Hospital,Urban Background,51.497786215320865,-2.594491573326708,0.4791243149651445
88,Stile AcresBroadlands Drive,Urban Background,51.502621204759016,-2.657120307628952,0.5000814705472862
89,The Square,Urban Background,51.43166911298329,-2.572847811504332,0.192541186283362
90,Hannah Moore School,Urban Background,51.45422189326634,-2.579289950535241,0.2902957173423624
91,Brangwyn Grove,Urban Background,51.488411153758626,-2.566862669088056,0.43848831642466063
92,Redland Court,Urban Background,51.47372445440826,-2.605696978891597,0.374829140492443
93,Dundridge Playing Fields,Urban Background,51.45112118993204,-2.529533085683441,0.27685578680635575
94,Airballoon Infants School,Urban Background,51.45902619595496,-2.531049640702937,0.3111198618822898
95,Trowbridge Rd,Urban Background,51.50221472172273,-2.602285057642843,0.4983195787496047
96,Greville Smyth Park,Urban Background,51.44247760471944,-2.619971828462037,0.2393903564460526
97,Ashton Vale School,Urban Background,51.433490632209924,-2.629386999974737,0.2004365213852653
98,Stockwood Green School,Urban Background,51.40973269978381,-2.546033401222652,0.09745828481760947
99,Bishops Close,Urban Background,51.47649647831452,-2.630671716596535,0.3868444172627521
100,Elmlea Jnr School,Urban Background,51.485634199699405,-2.623323357494505,0.42645167001456674
101,Teyfant Primary School,Urban Background,51.40634508805877,-2.590368987086094,0.08277475616016883
102,Victoria Park,Urban Background,51.44029854437538,-2.591199290342941,0.22994526721937522
103,Brunel College,Urban Background,51.47774750320919,-2.581805315645297,0.3922669572062165
104,Kingshead Lane Park,Urban Background,51.419803540782134,-2.623390623225135,0.14111012405008028
105,Broomhill Jnr School,Urban Background,51.44007742363093,-2.540109508154585,0.2289868242065966
106,St Annes Jnr School,Urban Background,51.44800817006544,-2.551555967964269,0.26336247053150225
107,Council House,Urban Background,51.45210059093371,-2.603999243915478,0.2811009789483247
108,Clifton College,Urban Background,51.46283939885099,-2.622234921416232,0.3276481061278131
109,Victoria Street a,Urban Traffic,51.454328674642014,-2.592055668254396,0.29075855887114527
110,Victoria Street,Urban Traffic,51.45224899658082,-2.589035751655742,0.2817442399679269
111,Redcliffe Street south,Urban Traffic,51.44990047849394,-2.591178385002693,0.2715646398749223
112,Redcliffe Hill a,Urban Traffic,51.44871862460868,-2.591983404809091,0.26644192015329454
113,Redcliff Hill b,Urban Traffic,51.44722576483863,-2.592064989048573,0.25997115225120676
114,Commercial Rd b,Urban Traffic,51.44678254341722,-2.594361406166584,0.258050018729703
115,Clarence Road a,Urban Traffic,51.44610929736059,-2.590611883728438,0.2551318484763225
116,Clarence Road e,Urban Traffic,51.447850999684846,-2.583957943387858,0.26268121896700575
117,Templegate a,Urban Traffic,51.44876308905065,-2.584947934773203,0.26663465030093225
118,Templegate b,Urban Traffic,51.44892642549889,-2.584647845586852,0.2673426285502668
119,Bath Bridge south,Urban Traffic,51.44726189498118,-2.583101563152069,0.26012775756098033
120,corner York rd  and  Whitehouse St,Urban Traffic,51.445233361587434,-2.589593540930772,0.251335124096077
121,Corner York Rd  and  Spring St,Urban Traffic,51.44535828846307,-2.587998097887082,0.2518766168961279
122,York Road,Urban Traffic,51.445242424313406,-2.589579269318181,0.25137440628285945
123,Temple Way a,Urban Traffic,51.45246062971592,-2.586290010186724,0.28266155914626245
124,Temple Way b,Urban Traffic,51.4523831093828,-2.585612701812106,0.2823255489640707
125,Redcliffe Way east,Urban Traffic,51.4494658785015,-2.588223113422893,0.26968087574802335
126,Redcliffe Way west,Urban Traffic,51.44941749217378,-2.590682982169422,0.2694711462726976
127,Temple Gate,Urban Traffic,51.44942077293056,-2.586467105033778,0.2694853666409377
128,between Redcliffe Way and Temple Quay rndbt,Urban Traffic,51.45000302997442,-2.586891789587041,0.27200914701586004
129,Temple Quay rndbt west,Urban Traffic,51.450671489481024,-2.58626718273517,0.27490657007324387
130,Temple Quay rndbt east,Urban Traffic,51.450433295779725,-2.585357634989127,0.27387412470377986
131,Temple Way near Avon Street east,Urban Traffic,51.45390577643336,-2.584984538421463,0.28892551586917975
132,Temple Way near Avon street west,Urban Traffic,51.453992146822415,-2.585690766180093,0.28929988642454263
133,St Thomas Street,Urban Traffic,51.4516781520977,-2.589906188019563,0.2792699270869963
134,Redcliffe Street north,Urban Traffic,51.45204504817516,-2.592026186096983,0.2808602300806518
135,The  Grove,Urban Traffic,51.44985570448947,-2.596444156389655,0.27137056793544667
136,Prince Street,Urban Traffic,51.450746036458995,-2.598153599417755,0.27522969231280275
137,Bath Bridge north,Urban Traffic,51.447971107067005,-2.583311979899282,0.2632018217783809
138,Bedminster Parade near bridge,Urban Traffic,51.445474754446906,-2.593409383430449,0.2523814361464104
139,Coronation Road,Urban Traffic,51.44601181610956,-2.593876693694566,0.2547093181336288
140,Bedminster Bridge east,Urban Traffic,51.446039953403876,-2.591877134794706,0.25483127861816796
141,Bedminster Bridge west,Urban Traffic,51.44640453033746,-2.592673147245705,0.2564115293336102
142,Coronation Road near entry to Asda,Urban Traffic,51.44578027676722,-2.596967106730334,0.2537057159370115
143,roundabout end of Wapping Rd  commercial road,Urban Traffic,51.44649469298413,-2.597911549810478,0.25680233734635993
144,Anchor Road,Urban Traffic,51.45214952121705,-2.599740420204306,0.2813130661873526
145,Anchor Road opp Cathedral School,Urban Traffic,51.451327175056925,-2.602290994936203,0.27774862480839513
146,Anchor Road a,Urban Traffic,51.45098329095668,-2.604459336509693,0.2762580667248097
147,Anchor Road b,Urban Traffic,51.45101493054367,-2.605294370877888,0.27639520782007987
148,Anchor Road c,Urban Traffic,51.45107420728372,-2.606000262313015,0.27665214154856926
149,Anchor Road near Hotwells rndbt east,Urban Traffic,51.45104695146337,-2.607784250743905,0.27653400179358484
150,Anchor Road near Hotwells rndbt west,Urban Traffic,51.4509185174302,-2.60999858014279,0.27597730729621034
151,Hotwells Road,Urban Traffic,51.45021125929109,-2.612852688493597,0.2729117124179206
152,Jacobs Wells Road South,Urban Traffic,51.45229694490552,-2.609470190310406,0.2819520709287752
153,Jacobs Wells road opp Clifton hill,Urban Traffic,51.45502939442461,-2.611363211973233,0.29379581338664723
154,Stokes Croft  Ashley Road,Urban Traffic,51.464771873283254,-2.59119766494996,0.33602437413285574
155,botttom of Arley Hill,Urban Traffic,51.466244012295405,-2.591677370691007,0.3424053283646771
156,Cromwell Road,Urban Traffic,51.469412239289156,-2.594540156856447,0.3561379387202756
157,Zetland Road junction,Urban Traffic,51.47095619249507,-2.595021019115114,0.3628301699985163
158,Bishop Road,Urban Traffic,51.4795448514054,-2.590914188531136,0.40005752350737434
159,Dongola Avenue,Urban Traffic,51.48195409880911,-2.589145400493222,0.41050035349104486
160,Strathmore Road,Urban Traffic,51.48712560724775,-2.586936537973951,0.4329161432935317
161,Horfield Common,Urban Traffic,51.49034527677737,-2.586718518118536,0.44687173019159476
162,Sports Centre,Urban Traffic,51.49410708307574,-2.584159701011462,0.46317719701283805
163,Monks Park Avenue,Urban Traffic,51.497342863832245,-2.582515795011759,0.4772026176701574
164,junction Birchwood Road,Urban Traffic,51.44146764304251,-2.542787512330589,0.23501269972802183
165,shops,Urban Traffic,51.44125044676808,-2.539188110407484,0.23407126724440308
166,Eastwood Crescent,Urban Traffic,51.439806930123694,-2.536351412514012,0.227814376037341
167,opp Whitmore Avenue,Urban Traffic,51.438563978080936,-2.53486957996956,0.22242682769324462
168,Raymill,Urban Traffic,51.43570055438939,-2.533858291331984,0.2100153805600297
169,Ironmould Lane,Urban Traffic,51.42697873948206,-2.528032277883796,0.17221086530518742
170,Bath Road park  and  ride,Urban Traffic,51.429526266868464,-2.539222698527545,0.1832530668383222
171,West Town Lane junction,Urban Traffic,51.43187355579942,-2.546859330151068,0.1934273391819425
172,top of Brislington Hill,Urban Traffic,51.43293275275292,-2.547231680530778,0.1980184051254258
173,Kenneth Road,Urban Traffic,51.434454908475885,-2.550500810923826,0.20461615569231273
174,Water Lane,Urban Traffic,51.434502388616075,-2.553795379038791,0.20482195731768077
175,opp Kensington Park Road,Urban Traffic,51.43708740648708,-2.556617568115583,0.21602666053332967
176,opp Kings Road,Urban Traffic,51.44032606989823,-2.559980497503765,0.23006457599391142
177,Arnos Court,Urban Traffic,51.44197962082689,-2.562015087309431,0.23723185619551723
178,Totterdown Bridge,Urban Traffic,51.443954088432214,-2.573866016604959,0.24579014268733923
179,Higham Street (National),Urban Traffic,51.4452509451081,-2.580702104114788,0.2514113394804116
180,Ferndown Close (National),Urban Traffic,51.49495536693925,-2.658191275986292,0.4668540647977308
181,Hillcrest (National),Urban Traffic,51.42857968847463,-2.568435959798736,0.17915014356949424
182,Newfoundland Way (National),Urban Traffic,51.460850383331625,-2.584310230567072,0.31902676202193386
183,No. 6 Borewell WW,Urban Industrial,51.510825592745604,-2.675120280520448,0.5356432101727003
184,Almondsbury School,Urban Background,51.55356623029324,-2.576227561102398,0.7209015653818901
185,AURN Bristol Centre,Urban Background,51.457681086582944,-2.586975481609463,0.30528951483707456
186,Hannah Moore School,Urban Background,51.45422189326634,-2.579289950535241,0.2902957173423624
187,Albright and Wilson,Urban Industrial,51.52260568129194,-2.688526030663229,0.5867037453806929
188,Tesco forecourt,Urban Industrial,51.4745825373648,-2.565322916145142,0.37854848223095866
189,Stapleton2,Urban Industrial,51.47657658373521,-2.561935420653608,0.38719163245024424
190,Eastgate,Urban Industrial,51.47489284386694,-2.566233776974026,0.3798934989526308
191,Tesco spot,Urban Industrial,51.4754366033762,-2.563447453390072,0.3822504126089407
192,Sainsbury Ashton3,Urban Industrial,51.43427375649342,-2.619244217226143,0.20383095640095159
193,Redland Road,Urban Industrial,51.470316809800536,-2.600497685210684,0.3600587797447532
194,Arnos Court,Urban Industrial,51.443716267354716,-2.561719854911159,0.24475931244756532
195,Stapleton1,Urban Industrial,51.4774248429715,-2.561269195650484,0.3908683934889952
196,Castle Cement,Urban Industrial,51.49023117097764,-2.721403351970757,0.44637714110750487
197,Blaise Castle House,Urban Background,51.50609419539453,-2.633830689147985,0.515135072217953
198,Brislington Depot,Urban Background,51.44222586463722,-2.561284378597295,0.2382991945858601
199,Little Stoke Parish Hall,Urban Background,51.526172898148914,-2.555370708351667,0.6021657685398121
200,Terra UK site,Urban Industrial,51.54311069454842,-2.66885229656526,0.6755822752155182
201,Rupert Street,Urban Traffic,51.4559099158705,-2.597587888229299,0.29761241426466284
202,Dundry Hill,Rural Industrial,51.397335634065534,-2.643061221391595,0.043723475601717764
203,Hallen Village,Urban Background,51.51827667828606,-2.650111357322101,0.5679397768818113
204,IKEA M32,Urban Traffic,51.47576044029413,-2.563408269432021,0.38365407662084494
205,Rhone Poulenc,Urban Industrial,51.51368136882973,-2.695595304369101,0.54802150891944
206,Rhone Poulenc,Urban Industrial,51.51430284779858,-2.69540309599694,0.5507152958672469
207,Rhone Poulenc,Urban Industrial,51.51393511811891,-2.693740408856141,0.5491213796430904
208,Old Market,Urban Traffic,51.45649609300011,-2.584816027571559,0.30015318616522746
209,Port Health Office,Urban Industrial,51.500879526349806,-2.704546195313395,0.49253220371582923
210,Parson Street School,Urban Traffic,51.43315528666775,-2.606283742021109,0.19898297349419775
211,Poplar Farm,Rural Industrial,51.51330606978302,-2.667447810340419,0.5463947834400311
212,Port Health Office,Urban Industrial,51.500636548862474,-2.704585636960302,0.49147902313082215
213,Royal Portbury Docks quayside,Urban Industrial,51.49430850802867,-2.716240008884401,0.464050269049656
214,Royal Portbury Docks cc,Urban Industrial,51.49362715028876,-2.71445774994943,0.46109693888313985
215,Royal Portbury Docks road,Urban Industrial,51.492573534627084,-2.716212636925975,0.45653006492654463
216,Blaise Castle House,Urban Background,51.505995540974254,-2.633786102594465,0.5147074567989189
217,Bristol North Baths,Urban Background,51.47530031586442,-2.592932520763489,0.3816596773809127
218,St. Matthias College,Urban Background,51.48441287473893,-2.529762150907765,0.42115786378387016
219,St Matthias College,Urban Background,51.48408010627013,-2.529787099938691,0.4197154861607715
220,The Vicarage Avonmouth,Urban Background,51.50176230701406,-2.699763016627144,0.49635859712627406
221,Wessex Water Avonmouth,Urban Industrial,51.51192498120266,-2.674675491765306,0.5404084853060739
222,Wessex Water Avonmouth,Urban Industrial,51.511924481092855,-2.674761939510411,0.5404063175910981
223,Temple Meads Station,Urban Traffic,51.44936116601264,-2.585804462631884,0.26922700176372294
224,South Liberty Lane Travellers Site,Urban Background,51.43497179474682,-2.633089058805853,0.20685658788701822
225,Parson Street School,Urban Traffic,51.433393283406545,-2.605467022762587,0.2000145651340154
226,West Town Road,Urban Traffic,51.491852092705024,-2.691185015423044,0.45340299075244345
227,A4 Portway N of P and R,Urban Traffic,51.49252147609153,-2.690489517153733,0.4563044183469831
228,A4 Portway S of P and R,Urban Traffic,51.48995394933292,-2.688347746655065,0.4451755299740456
229,A37 N of Airport Rd. Junction,Urban Traffic,51.429117015368284,-2.565134770925645,0.18147917519466675
230,A37 S of Airport Rd.Junction,Urban Traffic,51.42678010345821,-2.564990494417549,0.17134988182027752
231,A4174 East of Airport Rd Junction,Urban Traffic,51.42762341333356,-2.567244581227641,0.17500518996267178
232,A4174 West of Airport Rd. Junction,Urban Traffic,51.42892659264905,-2.56359349692232,0.18065379209829352
233,Parson Street School,Urban Traffic,51.432451313996886,-2.606806545331983,0.19593161940592818
234,Parson St. A38 East,Urban Traffic,51.43245991656879,-2.608604678003047,0.19596890706499762
235,Parson St. A38 West,Urban Traffic,51.432151064213045,-2.612642489039786,0.19463019330894296
236,Parson St. Bedminster Road,Urban Traffic,51.43366207904189,-2.605643225576552,0.20117965391481532
237,Parson Street Bedminster Down Road,Urban Traffic,51.43148807394754,-2.613913793187786,0.19175647655705805
238,Parson Street Chip Shop,Urban Traffic,51.43336016979382,-2.608372189581036,0.19987103490657665
239,Kingsweston Lane Central,Urban Traffic,51.50381449823633,-2.673330659108409,0.5052537749295662
240,Kingsweston Lane 100m N,Urban Traffic,51.50462889030876,-2.673976613240253,0.5087837394899976
241,Kingsweston Lane 200m N,Urban Traffic,51.50582250283974,-2.674340073946274,0.5139574268034012
242,Kingsweston Lane 100m S,Urban Traffic,51.50309157184121,-2.672412363488487,0.5021202663395734
243,Kingsweston Lane 200m S,Urban Traffic,51.502396435255,-2.671350453778305,0.4991072120662641
244,Lawrence Weston Road Central,Urban Traffic,51.50912955594399,-2.662012106213774,0.5282917758874587
245,Lawrence Weston Road 100m N,Urban Traffic,51.5096611599546,-2.663388691039847,0.5305960018016674
246,Lawrence Weston Road 200m N,Urban Traffic,51.51046284465277,-2.664697202423275,0.5340708865273498
247,Lawrence Weston Road 100m S,Urban Traffic,51.50838389594584,-2.660329879142747,0.5250597289941706
248,Lawrence Weston Road 200m S,Urban Traffic,51.50777976803433,-2.65905319824722,0.5224411498235345
249,Merchants Road Hotwells,Urban Traffic,51.449689141419604,-2.619795854562764,0.27064860396549
250,Joy Hill Hotwells,Urban Traffic,51.45061930867284,-2.622413039505726,0.2746803935056469
251,Church Hotwells,Urban Traffic,51.45085833645492,-2.619725352349186,0.2757164541799401
252,Almshouses Hotwells,Urban Traffic,51.450413943002616,-2.623834844882425,0.2737902405162331
253,Stapleton Road North,Urban Traffic,51.47796924422822,-2.562110995485228,0.3932280887855619
254,Stapleton Road Middle,Urban Traffic,51.47724052379478,-2.562217176314723,0.39006946606364906
255,Stapleton Road South,Urban Traffic,51.47638629066722,-2.562249817188262,0.3863668113243592
256,Stapleton Road Heath Street,Urban Traffic,51.473623849528316,-2.562748419160279,0.37439307084878864
257,Stapleton Road Argyll Street,Urban Traffic,51.471944435203675,-2.564253711137561,0.3671136863250773
258,Gatton Road,Urban Traffic,51.46830289904734,-2.573623284119123,0.35132952779431414
259,Baptist Mills School,Urban Traffic,51.4677586633714,-2.572767124082376,0.3489705502040005
260,Elton Street Wellington Road,Urban Traffic,51.46078360209216,-2.581474015133974,0.3187373002054388
261,Cabot Primary School,Urban Traffic,51.463286289502555,-2.580843683343554,0.32958514384690113
262,Pritchard Street,Urban Traffic,51.460290116908325,-2.586663484433412,0.3165982995090918
263,Pilning Fire Station,Rural Industrial,51.55730020155122,-2.639682025612042,0.7370863818315893
264,South Liberty Lane RWS,Urban Traffic,51.429656435573214,-2.628543887823607,0.1838172802316026
265,Wells Road,Urban Traffic,51.428344130274326,-2.565067576493224,0.1781291217212511
266,Trailer Portway P&R,Urban Traffic,51.490465052578095,-2.690098113249685,0.44739089577052954
267,Old Beaufort Club 1,Urban Traffic,51.453518255303024,-2.597585441985001,0.2872458140365925
268,Old Beaufort Club 2,Urban Traffic,51.45348221807493,-2.597599363222606,0.28708961146251444
269,Old Beaufort Club 3,Urban Traffic,51.45346423711807,-2.597599128396531,0.28701167339971295
270,B and W 3rd floor,Urban Traffic,51.452969161868765,-2.597707783475118,0.284865780599478
271,B and W Top Floor,Urban Traffic,51.45281477306012,-2.598007957971777,0.2841965856975402
272,B and W Broad Quay,Urban Traffic,51.45289532045425,-2.598080960323191,0.2845457166092407
273,B and W Broad Quay2,Urban Traffic,51.45301219848701,-2.598082486608559,0.2850523218765192
274,Marsh St Derelict,Urban Traffic,51.45314912208201,-2.597681354968595,0.28564581419330815
275,Marsh St Derelict Garage,Urban Traffic,51.453311101340624,-2.597654688511155,0.2863479097340075
276,Rupert St Green Box,Urban Traffic,51.45592797032519,-2.597573732760043,0.2976906709021952
277,Project House GF,Urban Traffic,51.45365436633351,-2.597342585641647,0.2878357843103276
278,Project House 1F,Urban Traffic,51.453645375862585,-2.597342466844443,0.2877968153114653
279,Project House 2F,Urban Traffic,51.45362739489865,-2.597342233567554,0.2877188772180195
280,Project House 3F,Urban Traffic,51.45361840442033,-2.597342116209654,0.2876799081870961
281,William Street,Urban Traffic,51.44493352026047,-2.591992445361081,0.2500354684464596
282,Whitehouse Street,Urban Traffic,51.44494826817699,-2.59085601131378,0.2500993929668544
283,Avonmouth Primary School,Urban Background,51.49697239742335,-2.684248471031978,0.4755968391532652
284,Bear Pit Railing,Urban Traffic,51.459974660057945,-2.592157431090944,0.3152309587160168
285,Bear Pit Toilet Block,Urban Traffic,51.45982378955668,-2.59176687377338,0.3145770138401862
286,Traffic Light Avon House,Urban Traffic,51.46035511497509,-2.591601047888181,0.3168800322026352
287,Shop Parade,Urban Traffic,51.45946102333958,-2.592381047690014,0.3130046116355925
288,Bond St. Lamp post,Urban Traffic,51.459846362596885,-2.590860431971663,0.3146748561874323
289,Castle Court forecourt sainsburys,Urban Industrial,51.44455457203286,-2.561269702007667,0.24839292567252855
290,Lamppost   16 Ashley Road St. Pauls,Urban Traffic,51.46685199760659,-2.579794887295533,0.3450406273495319
291,Facade   383 Church Road Redfield,Urban Traffic,51.460823228242134,-2.545074552541112,0.3189090588826436
292,Facade St. Georges Library   Church Road St. George,Urban Traffic,51.460874241750645,-2.545708441201222,0.3191301758154367
293,Facade Ye Olde Flower Shop 218 Church Road St. George,Urban Traffic,51.459959332357485,-2.55105151469516,0.3151645211348462
294,Facade Haart Estate Agents 755 Fishponds Road Fishponds,Urban Traffic,51.48118291495413,-2.530271869853138,0.40715767400063824
295,Lamppost   717 Fishponds Road Fishponds,Urban Traffic,51.480331711333484,-2.531615431751713,0.4034681505925317
296,Facade Cafe Culture 597 Fishponds Road Fishponds,Urban Traffic,51.477656039936605,-2.53872537714301,0.391870511659007
297,Facade   784 Muller Road Fishponds,Urban Traffic,51.47463984524911,-2.558945738133175,0.3787968819974566
298,Lamppost     Russell Town Avenue Redfield,Urban Traffic,51.458450148185605,-2.564073195732481,0.30862299547139305
299,Lamppost     Sarah Street Redfield,Urban Traffic,51.458435757530864,-2.568923320542159,0.3085606194943225
300,Lamppost     Cottrell Road \ Muller Road Horfield,Urban Traffic,51.4757527549937,-2.563134625265843,0.38362076485483165
301,Lamppost     Glenfrome Road \ Muller Road Horfield,Urban Traffic,51.4760176103265,-2.567903450549671,0.3847687744807644
302,Lamppost     Muller Road Horfield,Urban Traffic,51.48054949821475,-2.576930859562985,0.40441214304852524
303,Lamppost     Muller Road \ Downend Road Horfield,Urban Traffic,51.485465003866764,-2.580996486740563,0.42571829439216813
304,Lamppost     Muller Road \ Filton Avenue Horfield,Urban Traffic,51.488814976969806,-2.583501701119644,0.44023867926880494
305,Give Way sign  Chesterfield Rd \ Ashley Down Road St. Andrews,Urban Traffic,51.473505774739834,-2.583277271771477,0.37388127827008855
306,Lamppost     Ashley Hill St. Pauls,Urban Traffic,51.469552243655826,-2.580995281953829,0.3567447845742382
307,Lamppost     Hendre Road \ Winterstoke Road Ashton,Urban Traffic,51.435612909045474,-2.619305139097509,0.2096354837408066
308,Lamppost     Whiteladies Road \ Cotham Hill Clifton,Urban Traffic,51.46442779807092,-2.610884883905359,0.33453298767812817
309,Lamppost     M5 Lawrence Weston Road 25m from carriageway Avonmouth,Urban Traffic,51.509226316062886,-2.66238814456361,0.5287111804987266
310,Lamppost     M5 Lawrence Weston Road 50m from carriageway Avonmouth,Urban Traffic,51.50935862446005,-2.662836745471441,0.5292846683417989
311,Monitor     A37 Wells Road Knowle,Urban Traffic,51.428344130274326,-2.565067576493224,0.1781291217212511
312,Monitor     Rupert Street City Centre,Urban Traffic,51.45592789682728,-2.597588121633087,0.29769035232712554
313,Monitor     Temple Way Temple Meads,Urban Traffic,51.44935260990646,-2.585718020736833,0.2691899155093052
314,Monitor     Bath Road Brislington,Urban Background,51.442234992676006,-2.561255716089564,0.2383387598695888
315,Monitor     Trailer Portway Park and Ride,Urban Traffic,51.490465052578095,-2.690098113249685,0.44739089577052954
316,Monitor     Castlemead City Centre,Urban Background,51.45769000485671,-2.58698998768857,0.30532817089893066
317,Facade   742 Muller Road Fishponds,Urban Traffic,51.47514333990281,-2.560837944799679,0.38097926852121916
318,Facade   258 Fishponds Road Fishponds,Urban Traffic,51.47405779363729,-2.554633931147121,0.37627399206322243
319,Lamp post Roundabout poplar way,Urban Background,51.51929056537691,-2.677350081853466,0.5723344482203122
320,Lamp post bridge poplar way east,Urban Background,51.51885301889665,-2.673726220358855,0.5704379126066157
321,Lamp post industrial units entrance,Urban Background,51.52112656915355,-2.6739040916348,0.5802925662862582
322,Lamp post bridge poplar way west,Urban Background,51.52185475625259,-2.680112328463537,0.5834488772818884
323,Days Road Kingsland Road,Urban Background,51.45328384539335,-2.576256215088966,0.2862297694288727
324,Days Road Chancery Street,Urban Background,51.45572496835381,-2.569839644154864,0.2968107633135473
325,Days Road Peters Terrace,Urban Background,51.45661468294888,-2.569922608035697,0.3006672116948861
326,Days Road Sarah Street,Urban Background,51.457686945973755,-2.569446562270323,0.3053149122379187
327,Days Road Oxford Street,Urban Background,51.452586377536406,-2.577297944038051,0.28320661031373606
328,Hartcliffe Hilltop Farm,Urban Background,51.42520674316232,-2.603013053726801,0.16453018615608123
329,Hartcliffe Novers Hill,Urban Background,51.425935530159265,-2.601167314861017,0.16768909739602963
330,Hartcliffe Crantock Avenue,Urban Background,51.42474124552668,-2.607810877903649,0.16251249687299796
331,Hartcliffe Novers Park Drive 1,Urban Background,51.42719888760269,-2.600249192554023,0.17316509250138593
332,Hartcliffe Novers Park Drive 2,Urban Background,51.427548730522744,-2.59864280701387,0.17468147895861086
333,Hengrove Whitchurch Lane,Urban Background,51.41318784877629,-2.597330147720932,0.11243455227819643
334,Hengrove Hawkfield Road,Urban Background,51.41231265614818,-2.596168398418599,0.1086410490438622
335,Hengrove Rowacres,Urban Background,51.41523225254514,-2.578721878816906,0.12129597553558998
336,Hengrove Inns Court Drive,Urban Background,51.41748841371833,-2.593245051624822,0.13107525661362057
337,Hartcliffe A4174,Urban Background,51.4257688337557,-2.605580900423656,0.16696655549407885
338,Hengrove Hengrove Leisure Park,Urban Background,51.41596546977394,-2.585014228149346,0.12447408951825836
339,Hengrove Penrose,Urban Background,51.41859453473454,-2.580619358710877,0.13586971387683772
340,153 Muller Road Façade,Urban Traffic,51.484630945899255,-2.580582683786774,0.42210308844121197
341,M4 J18 Climbing Lane Near Springs Farm,Urban Traffic,51.50148507492868,-2.368143716234332,0.49515694073798056
342,M4 j19 - 20 widening North East Green Acres Farm,Urban Traffic,51.527128740521256,-2.529609526389356,0.6063088463201083
343,M4 j19 - 20 widening SW1 Palmers Leaze,Urban Traffic,51.52774602849818,-2.532268921538114,0.6089844675053934
344,M4 j19 - 20 widening SW1 Ormond Close,Urban Traffic,51.542370056276546,-2.546772365172487,0.6723719948845585
345,M5 J16 - 17 N Chillington Court,Urban Traffic,51.54017667907769,-2.587433650100134,0.6628648495650551
346,M5 J16 - 17 S Falcon Close,Urban Traffic,51.534908920698335,-2.592612617524449,0.6400318665074016
347,M5 J17 - 18 Hallen Hill - Hollywood Lane S of M5,Urban Traffic,51.52729574274675,-2.614926020169489,0.6070327138004916
348,M5 J19 - 20 Naish Hill - Station Road S of M5,Urban Traffic,51.47648787557334,-2.726713956809432,0.38680712886994356
349,M5 J19 - 20 Tickenham Hill Housing Adjacent to J20,Urban Traffic,51.43080764834021,-2.843212405360021,0.18880718669877475
350,M5 J19 - 20 Tickenham Hill N of J20,Urban Traffic,51.440188318277166,-2.830164394421387,0.2294674946163415
351,M5 J19 - 20 Tickenham Hill EXTRA GRADIENT,Urban Traffic,51.44614804142411,-2.813654171889697,0.2552997837691266
352,M5 J17 - 18 Hallen Hill EXTRA GRADIENT,Urban Traffic,51.51850113225378,-2.642044045899223,0.5689126676777092
353,5102 façade,Urban Traffic,51.46048010930567,-2.591775381656658,0.31742181738467873
354,St. Matthias House façade,Urban Traffic,51.45812145282915,-2.585225291863976,0.3071982726643341
355,Unite façade,Urban Traffic,51.45737465189879,-2.585330914805666,0.3039612804254466
356,Broad Weir post development,Urban Traffic,51.457418475905556,-2.587346309544077,0.30415123462075333
357,River Street facade 1,Urban Traffic,51.45898528277933,-2.583293367389511,0.31094252462064026
358,River Street facade 2,Urban Traffic,51.45965525693141,-2.582366404664986,0.3138465128755892
359,Wellington Road post development,Urban Traffic,51.4597961658741,-2.582958282818907,0.3144572795944507
360,Great George Street lamppost,Urban Traffic,51.459631654027525,-2.581689667075102,0.3137442066068195
361,Lamb Street façade,Urban Traffic,51.458375686097305,-2.581126849576785,0.30830024118424704
362,Avon Street Temple Way junction post development,Urban Traffic,51.4536174269277,-2.58511038037449,0.28767567126673793
363,123 Newfoundland Street façade,Urban Traffic,51.46197620848515,-2.582122454510571,0.3239066264358007
364,St. Paul Street,Urban Traffic,51.460349768624056,-2.585527219970278,0.3168568585614533
365,Newfoundland Road Police Station,Urban Traffic,51.46115074173004,-2.583580030287172,0.32032865890639517
366,Hallen,Rural Industrial,51.51543360090609,-2.66010063292111,0.5556165203894964
367,A4174 UWE,Urban Traffic,51.50573015270544,-2.545396389207805,0.5135571371735345
368,Easton Business Park,Urban Background,51.46313413591788,-2.569729923291076,0.32892563747421066
369,Dundry,Urban Background,51.397335634065534,-2.643061221391595,0.043723475601717764
370,Orange Street Façade,Urban Traffic,51.461028325911606,-2.584686715492382,0.31979805022867214
371,No. 6 Borewell,Urban Industrial,51.51063147862009,-2.676039571229183,0.5348018267568507
372,Wessex Water,Urban Industrial,51.510830916373536,-2.675754355085762,0.5356662853211047
373,No. 6 Borewell,Urban Industrial,51.510830582746735,-2.675811986902373,0.5356648392230602
374,Anstee and Ware,Urban Industrial,51.507441710900856,-2.698669251731324,0.5209758485995022
375,Atwood Drive,Urban Background,51.50760972679413,-2.655722425305151,0.5217041098006141
376,Sevalco Roadside,Urban Background,51.53253717408554,-2.673641393530056,0.6297515828787449
377,Start of Cutting Northbound carriageway Hallen Large Lamppost,Urban Traffic,51.51754967187477,-2.645028136978702,0.5647885835513006
378,Property Boundary Oakhill Lane M5 South carriageway rear garden,Urban Traffic,51.51613835482281,-2.646622171322003,0.5586712607707616
379,Station Road facing Mway closest property to carriageway,Urban Traffic,51.47625575539903,-2.72645110822965,0.38580100906989084
380,Station road two doors down from HA-NEW-3,Urban Traffic,51.47586235782142,-2.726099309984775,0.38409583590558777
381,Junction of priory road with station road Lamppost,Urban Traffic,51.476321725707855,-2.725962652080366,0.38608695592531306
382,Cole Acre North of M5 over footbridge Lamppost,Urban Traffic,51.47751120006929,-2.728414786110505,0.39124270643363873
383,Substation Post Nearest M5 Station Road,Urban Traffic,51.476579563104046,-2.726427471770722,0.3872045464590651
384,Sevalco North (on site),Urban Industrial,51.53478007805864,-2.668211137789615,0.6394734009139851
385,Shiner's Garage,Urban Traffic,51.45827047613012,-2.564042210779613,0.3078442108910359
386,Avonmouth Rd No 28 on facia,Urban Traffic,51.496469959771524,-2.685609230830199,0.47341903418092424
387,facade avonmouth road underpass - house to SE,Urban Traffic,51.496145071106326,-2.685820371286074,0.47201081139357115
388,Avonmouth Rd No 31 on facia,Urban Traffic,51.496686920495804,-2.686937631876509,0.4743594456776038
389,facade house on portway M5 underpass,Urban Traffic,51.49371962867822,-2.690075673286334,0.46149778443217954
390,facade west town lane M5 underpass,Urban Traffic,51.49273960470016,-2.690089573869873,0.457249892012737
391,facade ashton road - house closest UP,Urban Traffic,51.441406849733,-2.625193948693407,0.23474919246249099
392,Bath Rd No 23 lamppost 48 (opp Book Barn),Urban Traffic,51.44314023362066,-2.571151008319183,0.24226250687237233
393,Lamp post 48 230 Bath Road,Urban Traffic,51.443168258336456,-2.570935545648647,0.24238397938779244
394,shiners garage triplicate QAQC tubes contin,Urban Traffic,51.45826293407347,-2.563739871147262,0.3078115200120481
395,Whitehall Rd/Easton Rd lamppost 4TZ,Urban Traffic,51.461789231556125,-2.563351327543408,0.3230961790414646
396,Whitehall Rd lamppost 17 nr juction with Chalks Rd,Urban Traffic,51.46239147854714,-2.55580196913523,0.32570660540351315
397,lamppost sussex place,Urban Traffic,51.46734048028636,-2.581010271243098,0.34715794480184226
398,Cotham Brow/Cheltenham Rd existing site junction,Urban Traffic,51.46908683785325,-2.59488140935395,0.3547274933395311
399,facade cotham brow arches elysee guest house,Urban Traffic,51.4698422984692,-2.594833699753169,0.3580020207955456
400,facade cotham girls school cheltenham rd,Urban Traffic,51.468225552976655,-2.592753982256307,0.35099427294883945
401,facade 21 bath buildings,Urban Traffic,51.46673257011127,-2.591079106244558,0.34452297149273275
402,facade cromwell road west,Urban Traffic,51.469831784685226,-2.593365145807071,0.3579564490296966
403,Wells Rd bus lane sign just below junction with Knowle Rd,Urban Traffic,51.44162507595997,-2.577606249598577,0.23569508925279709
404,facade junction brecknock road with a37,Urban Traffic,51.44013690730547,-2.574925834752634,0.22924465488810952
405,facade junction hengrove road with a37,Urban Traffic,51.43650157928532,-2.570060557507073,0.21348740538735803
406,Wells Rd - Knowle shopping centre lamppost 41 (outside Miss Millies),Urban Traffic,51.432509180471094,-2.566457333915087,0.19618244036809948
407,St John's Lane No 26 lamppost 15 (just past roundabout),Urban Traffic,51.440741958578904,-2.583464917507214,0.23186723635073478
408,Bedminster Down Rd lamppost between Ashton Motors & Plough PH,Urban Traffic,51.43367176244371,-2.610677833235477,0.20122162640743801
409,Parson St lamppost outside Bristol Scuba,Urban Traffic,51.434074445362235,-2.609316638512749,0.20296704667810878
410,North St/Dean Lane on roundabout sign,Urban Traffic,51.44198211412972,-2.603018066359417,0.23724266336190086
411,North St/Langton Park T junction,Urban Traffic,51.441641402815144,-2.604581754890187,0.23576585764814437
412,facade BRI children's,Urban Traffic,51.45840607268575,-2.598253733110734,0.3084319511848031
413,facade BRI main building,Urban Traffic,51.45947316080052,-2.597058756363165,0.31305722119360485
414,Ashley Rd P sign outside International Market (nr Dalrymple Rd),Urban Traffic,51.46543366780447,-2.588341688045169,0.3388929079573674
415,City Rd/Ashley Rd lamppost No 16,Urban Traffic,51.46536714835212,-2.585476290017883,0.3386045808514048
416,Fishponds Rd lamppost 37 outside PO (just before Oakdene Ave),Urban Traffic,51.47401682775536,-2.549940118777082,0.37609642634725043
417,Fishponds Rd/Elmgrove Rd lamppost 53 (outside video centre),Urban Traffic,51.47643592566539,-2.542065449603055,0.38658195313434224
418,facade villiers road stapleton road junction,Urban Traffic,51.46493245328223,-2.571551495309523,0.336720404613371
419,Gaol Ferry Bridge,Urban Traffic,51.44664181370447,-2.600776679713436,0.25744002887906364
420,Cannon's Road,Urban Traffic,51.449887300643034,-2.602545517202168,0.2715075207694633
421,16 Lower Ashley Road,Urban Traffic,51.46685135755009,-2.579924434446273,0.3450378530386897
422,Bristol Scuba,Urban Traffic,51.43424486044965,-2.609390787576119,0.20370570713357386
423,Whitehall Rd/Easton Rd lamppost 4TZ,Urban Traffic,51.46181682147894,-2.563222123083978,0.3232157669562562
424,Old Market,Urban Traffic,51.456470706218575,-2.584499097203317,0.3000431477179434
425,Shiners Garage,Urban Traffic,51.45827137270618,-2.563855115185077,0.3078480970802924
426,Almondsbury School,Rural Industrial,51.55356623029324,-2.576227561102398,0.7209015653818901
427,A37 Junction w/ Airport Road,Urban Traffic,51.428344130274326,-2.565067576493224,0.1781291217212511
428,Parson Street School,Urban Traffic,51.43315528666775,-2.606283742021109,0.19898297349419775
429,Littlestoke Parish Hall,Urban Background,51.526172898148914,-2.555370708351667,0.6021657685398121
430,Avon Probation Service,Urban Traffic,51.46115074173004,-2.583580030287172,0.32032865890639517
431,Former Shell Tank Farm,Rural Industrial,51.536115092207915,-2.678365140103434,0.6452599904378381
432,CREATE Roof,Urban Background,51.44768990530409,-2.623797710284685,0.2619829589099498
433,13 Passage Road,Urban Traffic,51.49583656711011,-2.618578895704534,0.470673607594243
434,CH Ramp North,Urban Traffic,51.46980135621602,-2.602823083152613,0.35782455749787406
435,Council House Ramp South,Urban Traffic,51.45241928119542,-2.603226375368126,0.2824823348918174
436,Bath Road,Urban Traffic,51.44301575833582,-2.57270329389252,0.24172297148270128
437,Economy Cars,Urban Traffic,51.44301575833582,-2.57270329389252,0.24172297148270128
438,Eastgate Market,Urban Traffic,51.4740151310863,-2.571117952027326,0.3760890721724574
439,Industrial Museum,Urban Industrial,51.4479654929428,-2.600376592891867,0.26317748748025316
440,Hallen Village,Urban Traffic,51.518114702316886,-2.650137858430663,0.5672376955991321
441,AURN St Pauls,Urban Background,51.46330618810501,-2.585867334979488,0.32967139390241973
442,Exclusively Yours LAR,Urban Traffic,51.466920573413006,-2.580472317334089,0.34533786767707036
443,Teoh's LAR,Urban Traffic,51.466765793556796,-2.579045262273056,0.3446669777880502
444,St. Pauls Day Nursery,Urban Background,51.463306116040634,-2.585881727875252,0.32967108154097247
445,Newfoundland Way Police Station,Urban Traffic,51.46113268813047,-2.583594192948761,0.32025040597537885
446,Holesmouth New,Urban Traffic,51.522106227438385,-2.692424053615861,0.5845388736164445
447,62 Callington Road,Urban Traffic,51.43169360503456,-2.552653603823123,0.19264734654193053
448,Cheltenham Road \ Station Road,Urban Traffic,51.46941472871462,-2.594050722471334,0.3561487290802938
449,Cheltenham Road \ Station Road,Urban Traffic,51.46941472871462,-2.594050722471334,0.3561487290802938
450,Millpond School Fence,Urban Traffic,51.46769425579804,-2.573068614757015,0.34869137699113667
451,Millpond School play area,Urban Traffic,51.467478777505335,-2.573008328789102,0.34775739106159137
452,Fishponds Road,Urban Traffic,51.478520058890915,-2.536561535579956,0.3956155828495489
453,Fishponds Road,Urban Traffic,51.478538104356964,-2.536547350939524,0.3956938005260068
454,North Street School fence,Urban Traffic,51.443270721805504,-2.616213200461679,0.24282810504510666
455,Savanna coffee drainpipe,Urban Traffic,51.44246059377194,-2.614691762897228,0.2393166228675282
456,Strada Exeter Road,Urban Traffic,51.44170421199007,-2.613214343034955,0.23603810263808372
457,façade of North Street near Myrtle Street,Urban Traffic,51.44073584821635,-2.609303001137693,0.2318407511183725
458,Lamppost corner park avenue,Urban Traffic,51.43804293870356,-2.585674783044107,0.2201683939498511
459,Victoria Park Primary,Urban Traffic,51.436971970348296,-2.589487824125116,0.2155263051238175
460,property façade nr. Paultow Road,Urban Traffic,51.43695583556872,-2.592681347207733,0.21545636927592604
461,Jamiesons Autos,Urban Traffic,51.43947937288263,-2.603719311254598,0.2263945863664731
462,B&G Snax West St,Urban Traffic,51.438032104133306,-2.60544116719518,0.22012143174292395
463,Martial Arts West Street,Urban Traffic,51.436720167879756,-2.607064002137929,0.21443487285149
464,18 Morton Street,Urban Traffic,51.457848898322375,-2.565706587892944,0.30601689113783875
465,Elmgrove Ave,Urban Traffic,51.46363188431669,-2.565331537207315,0.33108311698228393
466,rear 32 st marks grove,Urban Traffic,51.467988968115044,-2.567933184774938,0.3499688010596903
467,T shirt Shop W. Town Lane,Urban Traffic,51.43222774115742,-2.548028652562912,0.19496254784112366
468,cycle sign lamppost,Urban Traffic,51.43217108122776,-2.550530679004872,0.19471695661980118
469,Halston Drive,Urban Traffic,51.46374493119331,-2.582634328760187,0.3315731161873947
470,CREATE Centre Roof,Urban Background,51.44768990530409,-2.623797710284685,0.2619829589099498
471,Avonmouth Road - Lampost (20) Opposite Number Hse No 45,Urban Traffic,51.49723995102492,-2.687680594161627,0.4767565443659616
472,Avonmouth Road - Lampost (19) Opposite Hse No 37,Urban Traffic,51.49701809202992,-2.687187509141791,0.475794901422355
473,Avonmouth Road - School Sign Opposite Hse No 16,Urban Traffic,51.496166595971566,-2.685215756707159,0.47210411044943884
474,Avonmouth Road - Telegraph Pole Opposite Hse No 4,Urban Traffic,51.49583685368945,-2.684721065823012,0.47067484976608503
475,Barracks's Lane - Telegraph Pole No 6. End of Lane Left Hand Side,Urban Traffic,51.49814920173183,-2.682868986616084,0.4806976715951966
476,Junction 3 Millpond Street,Urban Traffic,51.4669832943805,-2.575046207744205,0.34560973033381465
477,Junction 3 Easton Way,Urban Traffic,51.46665694929228,-2.575589121762738,0.3441951947128471
478,Avonmouth Road Outside No 12,Urban Traffic,51.49607788231084,-2.685012770005722,0.47171958303447314
479,Avon School Barrack's Lane,Urban Traffic,51.49645058487772,-2.684312620596993,0.47333505412905175
480,Avonmouth Road Outside No 76,Urban Traffic,51.49515039538489,-2.683731278068424,0.46769941131409276
481,On 1 way sign at bottom of Wellington Hill,Urban Traffic,51.48760279138888,-2.586798630635255,0.4349844874781407
482,No 67 Filton Avenue on wall facing Muller Rd,Urban Traffic,51.48879714017991,-2.583472671669422,0.44016136609456213
483,Muller Road - Adjacent to Darnley Avenue,Urban Traffic,51.48961566458607,-2.585196942096055,0.443709242164827
484,On green fence surrounding Western Power substation (?) adjacent to No.1 Dorian Road,Urban Traffic,51.49400594147045,-2.588205785041936,0.46273880094495773
485,385 Church Road Redfield,Urban Traffic,51.46076769090621,-2.545419312663237,0.31866833351923135
486,20 Ashley Road,Urban Traffic,51.46516032026178,-2.589057900274162,0.3377080890341027
487,Hungerford Road,Urban Traffic,51.42696266873326,-2.545318864501462,0.17214120699730148
488,Temple Way Nox site,Urban Traffic,51.45842670160946,-2.585315532017372,0.30852136680179654
489,Temple Way,Urban Traffic,51.45842670160946,-2.585315532017372,0.30852136680179654
490,Colston Avenue,Urban Traffic,51.4557460948457,-2.597974306961512,0.2969023356288654
491,Co-located Colston Ave,Urban Traffic,51.4557460948457,-2.597974306961512,0.2969023356288654
492,Sea mills pharmacy no stopping sign,Urban Background,51.485276380338725,-2.651111479969067,0.4249007098505383
493,Avonmouth primary,Urban Background,51.495645901507004,-2.691199614674713,0.4698471717230617
494,Henbury school,Urban Traffic,51.50968418856366,-2.631646967659979,0.5306958188021326
495,Woodstock school,Urban Background,51.50702591827312,-2.63110608448023,0.5191736045820533
496,Blaise school,Urban Traffic,51.507979435267565,-2.625975522827002,0.5233066030628923
497,Orchard school,Urban Traffic,51.49944681734306,-2.580670036679557,0.48632215797688394
498,Filton avenue primary,Urban Traffic,51.49084647385414,-2.578126714206051,0.44904415791860386
499,Ashley down primary,Urban Traffic,51.48412271354319,-2.585155619959266,0.41990016645053246
500,Sefton park,Urban Traffic,51.474713301746384,-2.582716829052156,0.3791152775723847
501,Colston girls,Urban Traffic,51.46783985580912,-2.592576213031294,0.3493224770429592
502,Cabot primary,Urban Background,51.4632386584943,-2.583189235833013,0.32937868828720307
503,St. Barnabas,Urban Background,51.4677992430672,-2.582772342996972,0.3491464420046379
504,St. Werburghs park nursery,Urban Traffic,51.47188021466931,-2.573812220004519,0.36683532382865053
505,Fairfield high school,Urban Background,51.47606601688847,-2.572741822312621,0.3849785916609864
506,Glenfrome primary,Urban Background,51.47883446981324,-2.565418887355234,0.3969783900904439
507,Fishponds c of e,Urban Traffic,51.4797109079613,-2.535668464467665,0.4007772920036456
508,Briarwood school,Urban Traffic,51.47825673706165,-2.523197521938892,0.3944742201610283
509,St. Joseph's RC primary,Urban Traffic,51.47400959177465,-2.528000338705725,0.3760650621477351
510,Chester park infants,Urban Traffic,51.47503515849458,-2.531841688213487,0.3805103585820419
511,May park primary,Urban Background,51.47261668328728,-2.559007300175266,0.370027530886288
512,Bannerman road,Urban Background,51.46470030555389,-2.567518240462789,0.33571416538097937
513,City academy,Urban Traffic,51.460220706772105,-2.564210073510517,0.31629744279733535
514,Summer hill a420,Urban Traffic,51.46138059224599,-2.543138180671197,0.3213249409221102
515,Summer hill Plummers hill,Urban Traffic,51.461954705228344,-2.543418492433363,0.32381342104122424
516,St patricks,Urban Traffic,51.457772088091644,-2.553500759954964,0.3056839588788731
517,Redfield educate together,Urban Traffic,51.45840799615891,-2.555926383111395,0.3084402884370078
518,Bristol futures academy,Urban Traffic,51.455384634108405,-2.562107158973672,0.29533559199783316
519,Barton Hill Academy,Urban Traffic,51.45391684854063,-2.566320310033054,0.2889735076750876
520,Easton c of e academy,Urban Background,51.46124554190209,-2.573506229476259,0.3207395681710966
521,St. Nicholas of tolentine,Urban Traffic,51.459721431653264,-2.578092729762299,0.31413334575478946
522,Hannah more front,Urban Traffic,51.45424006895579,-2.58106020275041,0.2903744994692815
523,Hillcrest primary,Urban Traffic,51.440024013366866,-2.57227724283802,0.2287553185894642
524,West town lane academy,Urban Traffic,51.42882763396949,-2.556027259713073,0.18022485787408554
525,St Mary redcliffe secondary,Urban Traffic,51.44610207140931,-2.588482377929402,0.2551005277490962
526,St Mary redcliffe primary,Urban Background,51.442594328194524,-2.590538152819839,0.23989629178648122
527,Dalby avenue,Urban Traffic,51.441256910512635,-2.597196483266091,0.23409928420328355
528,Dalby avenue church lane,Urban Traffic,51.44046882475386,-2.598366034600013,0.23068334378189312
529,Compass point,Urban Traffic,51.438636777457134,-2.60671495022746,0.22274237499128718
530,Holy cross primary,Urban Traffic,51.44379197597881,-2.600739700525127,0.2450874698167529
531,Southville primary,Urban Traffic,51.44387314704649,-2.605905728051938,0.24543930402773487
532,Southville primary Myrtle street,Urban Background,51.44139742747096,-2.610002187242856,0.23470835187451997
533,Ashton gate primary,Urban Traffic,51.44339536630269,-2.616445059888016,0.24336837388195923
534,Ashton park school,Urban Traffic,51.44070502124481,-2.630305666588668,0.23170713228694936
535,HotWells primary,Urban Background,51.451256879151614,-2.622565673214342,0.2774439287499621
536,St George's primary,Urban Background,51.45184000277313,-2.607435060382844,0.27997146528671835
537,St Michaels on the mount,Urban Background,51.45673172126603,-2.600390557073961,0.30117451171135073
538,Real sounds studios silver street,Urban Traffic,51.457960383637534,-2.593973511581536,0.30650012178907415
539,Cathedral School,Urban Traffic,51.45143632416945,-2.602047801814769,0.2782217292405976
540,Cod Almighty downpipe,Urban Traffic,51.50146754888682,-2.593660670094454,0.49508097449427524
541,Bell Hill,Urban Traffic,51.48044644345296,-2.561090487394545,0.40396545444581294
542,Glenfrome Road lamppost by M32 Bridge,Urban Traffic,51.479146971715274,-2.562111145399483,0.3983329227247627
543,Nelson Street,Urban Traffic,51.45690055965097,-2.595514055194884,0.3019063379845255
544,420 Hotwell Road A4,Urban Traffic,51.45109401382759,-2.626132220944209,0.2767379925782039
545,South Eastern stair access Plimsoll Bridge,Urban Traffic,51.448534142578104,-2.623967498230648,0.2656422868415049
546,Talbot Road 20mph lamppost,Urban Traffic,51.43430509752032,-2.561287144331821,0.20396680339407147
547,Coronation Road Walter Street No Entry,Urban Traffic,51.44518051424607,-2.617202753490365,0.2511060584550324
548,Except local buses sign Blackmoors Lane,Urban Traffic,51.442007796521786,-2.628798610962666,0.2373539831265219
549,Lamppost outside BRI CAZ,Urban Traffic,51.458885673820056,-2.597655535088823,0.3105107717732769
550,Lamppost opposite BRI CAZ,Urban Traffic,51.4588154420712,-2.597323591952571,0.3102063537995793
551,Lamp post near Queens Head pub South Bristol link,Urban Traffic,51.41160446748052,-2.621552021451961,0.10557142081002927
552, Lamp post at junction with Highridge rd. near Cox brothers garage. South Bristol link.,Urban Traffic,51.41267398541224,-2.626656876121564,0.11020722280703976
553,Westbury on Trym High Street Lamp post by Athena restaurant,Urban Traffic,51.49486011263591,-2.61961722038818,0.4664411871109262
554,A4018 Lamp post by layby before roundabout for Crow Ln/ Knole Ln,Urban Traffic,51.50967949306714,-2.619039402273319,0.530675466275536
555,AQ Mesh Temple Way,Urban Traffic,51.45842670160946,-2.585315532017372,0.30852136680179654
556,Muller road/ Glenfrome road junction north,Urban Traffic,51.47616911205632,-2.568178900623726,0.38542545540289735
557,Traffic light on the corner of Shaldon road,Urban Traffic,51.48003193264275,-2.576146742721229,0.4021687664382878
558,Lampost on North corner of Draycott road junction with Muller road.,Urban Traffic,51.48366768181852,-2.580844068840856,0.4179278414287931
559,Muller road junction with Downend road lampost north of the junction.,Urban Traffic,51.4859415379368,-2.580988132624382,0.42778382085789124
560,Muller road junction with Downend road traffic light to the south of the junction.,Urban Traffic,51.48568989285129,-2.580970539272753,0.42669307075884155
561,St. Werburghs,Urban Background,51.47481785356064,-2.577938121228927,0.3795684551161476
562,Bristol Airport,Suburban Industrial,51.387248265963265,-2.70544211548589,0.0
563,"Whiteladies road, on loading sign next to Redland library",Urban Traffic,51.46591474645904,-2.611955703503362,0.3409781328249926
564,Baldwin Street traffic light outside domino's,Urban Traffic,51.45387036362951,-2.597302233532053,0.28877201984828704
565,"Baldwin Street lamp post by cycle way, opp St Stephens St",Urban Traffic,51.45381529785483,-2.595761747408724,0.28853333845673257
566,High St lamp post outside Wards solicitors,Urban Traffic,51.454787782801105,-2.593716527418586,0.29274855310840114
567,Church Road-CAZ-Outside Gurdwara,Urban Traffic,51.460129337615925,-2.551226273701188,0.3159014051956033
568,Church Road-CAZ-Lamppost,Urban Traffic,51.46040155548193,-2.546825410201327,0.3170813275600847
569,Marlborough St-CAZ-Lamppost opposite hosp,Urban Traffic,51.45969239458404,-2.596385177752411,0.3140074852156522
570,Marlborough St-CAZ-Lamppost by coach station,Urban Traffic,51.460117265856375,-2.594174258832973,0.31584908041883564
571,Rupert St-CAZ-Post outside fire station,Urban Traffic,51.4579494153966,-2.59436195109937,0.30645258018951177
572,Rupert St-CAZ-Post outside police station,Urban Traffic,51.458010664066094,-2.59469375932708,0.3067180612029143
573,Rupert St-CAZ-Post outside Fusion Tower,Urban Traffic,51.45742814399908,-2.596082192451426,0.3041931407599071
574,Park St-CAZ-Lamppost by Guild,Urban Traffic,51.455353273648505,-2.604416441133079,0.29519966077282017
575,Park St-CAZ-Lamppost by Agora,Urban Traffic,51.45506579613389,-2.604369461186763,0.29395359579640434
576,Baldwin St-CAZ-Lamppost by Yelland House,Urban Traffic,51.454013826529916,-2.595620425317123,0.2893938566407945
577,Baldwin St-CAZ-Drainpipe on building,Urban Traffic,51.45376644909555,-2.596523799120235,0.28832160458197026
578,Marlborough St-CAZ-On sign leg,Urban Traffic,51.4604006435202,-2.595027127094379,0.31707737468199637
579,Marlborough St-CAZ-Post by bollards,Urban Traffic,51.46024339826508,-2.5958886402241,0.31639579857550226
580,Marlborough St-CAZ-Post,Urban Traffic,51.460118704014064,-2.595656728107921,0.3158553140817679
581,Upper Maudlin St-CAZ-Crossing by BRI,Urban Traffic,51.45861573278832,-2.597695180440136,0.30934071829694054
582,Upper Maudlin St-CAZ-Post by BRI,Urban Traffic,51.45808145088279,-2.598436584034388,0.307024885105959
583,Lower Park Row-CAZ-Post by Art shop,Urban Traffic,51.4570333678408,-2.599430284912695,0.3024819921679522
584,Lower Park Row-CAZ-Post after OTR,Urban Traffic,51.45669849596732,-2.599857638149201,0.30103049738346216
585,Park Row-CAZ-Lamppost by museum,Urban Traffic,51.45600036911415,-2.600985382937691,0.2980044818636404
586,Park Row-CAZ-Post by house,Urban Traffic,51.45603425607659,-2.601388783574816,0.2981513641584574
587,Queens Road-CAZ-Lamppost by UoB,Urban Traffic,51.45653026825813,-2.606317370000408,0.3003013180708816
588,Park St-CAZ-Lamppost by bike stands,Urban Traffic,51.45600534305693,-2.60524540272306,0.29802604130943006
589,Park St-CAZ-Lamppost by City Hall,Urban Traffic,51.45363673469821,-2.602522904099332,0.28775936037416017
590,College Green-CAZ-Lamppost opp Denmark St,Urban Traffic,51.45329495534968,-2.599050322187998,0.28627792529071133
591,Anchor Road-CAZ-Lamppost,Urban Traffic,51.45183151939861,-2.600383782757917,0.2799346942860796
592,Lewins Mead-CAZ-Post by Evans Cycles,Urban Traffic,51.45782329115658,-2.596173688024523,0.3059058974398245
593,Lewins Mead-CAZ-Post by PMT,Urban Traffic,51.45802475756553,-2.595456714079325,0.306779149166847
594,Rupert St-CAZ-Post by Courtrooms,Urban Traffic,51.45698355758357,-2.59686793900949,0.30226609070141824
595,Victoria Street-CAZ-No entry sign,Urban Traffic,51.4532012484793,-2.590976244673207,0.28587175491809685
596,Counterslip-CAZ-Drainpipe on building,Urban Traffic,51.453412329958475,-2.590129942962445,0.2867866829559145
597,Temple Gate-CAZ-Lamppost,Urban Traffic,51.448620978893324,-2.584600804940529,0.2660186769435952
598,Bath Road-CAZ-Lamppost or sign,Urban Traffic,51.44706942429972,-2.582034389938335,0.25929349761729326
599,Wells Road-CAZ-Lamppost,Urban Traffic,51.44197925522354,-2.578704159299468,0.23723027149582893
600,Winterstoke Road-CAZ-Lamppost,Urban Traffic,51.4347897812745,-2.615180474070965,0.20606765448680545
601,Newfoundland St-CAZ-Lamppost by layby,Urban Traffic,51.45998617135611,-2.589883540351545,0.31528085418520346
602,Newfoundland St-CAZ-Lamppost by crossing,Urban Traffic,51.459967187606004,-2.588300103311159,0.31519856953711456
603,Temple Way-CAZ-Sign by Champ Square,Urban Traffic,51.458363333556555,-2.585401077199668,0.3082466993675276
604,Newfoundland Way-CAZ-Lamppost by petrol station,Urban Traffic,51.46119670000635,-2.583379116725419,0.32052786404618605
605,Newfoundland Way-CAZ-Road sign,Urban Traffic,51.46146374060336,-2.582115938971257,0.3216853456518567
606,Houlton St-CAZ-30mph sign,Urban Traffic,51.46029058062514,-2.582978970840202,0.3166003094794515
607,Cheltenham Rd-CAZ-Sign opp Tesco,Urban Traffic,51.465641564159306,-2.591683956206289,0.33979403014367493
608,Cheltenham Rd-CAZ-Lamppost by Bite,Urban Traffic,51.465302323139284,-2.591204535414618,0.338323597389397
609,Lower Ashley Rd-CAZ-Lamppost by grass,Urban Traffic,51.466696926393574,-2.578425412664911,0.34436847458083475
610,Gloucester Rd-CAZ-Lamppost by bus stop,Urban Traffic,51.48194358786422,-2.589447664459708,0.41045479403115687
611,Bedminster Rd-CAZ-Lamppost opp school,Urban Traffic,51.43333448297992,-2.606401210485846,0.1997596959756074
612,Bedminster Rd-CAZ-Lamppost by school,Urban Traffic,51.43329140541024,-2.606041029188167,0.19957297719544262
613,Bedminster Rd-CAZ-Post opp Van Sales,Urban Traffic,51.43239533530419,-2.608920265803825,0.19568898099129362
614,Bedminster Rd-CAZ-Lamppost by Van Sales,Urban Traffic,51.432528978230664,-2.609152199957179,0.1962682533223576
615,Bedminster Rd-CAZ-Post,Urban Traffic,51.432084283509944,-2.611663474156833,0.19434073381732062
616,Parson St-CAZ-Lamppost by Station,Urban Traffic,51.43382252605862,-2.6093565002606,0.20187510798671365
617,Lower Ashley Rd-CAZ-Lamppost by Geo Jones,Urban Traffic,51.46703081323005,-2.579998681380644,0.3458156997440815
618,Lower Ashley Rd-CAZ-Lamppost opp London Rd,Urban Traffic,51.46698849534303,-2.579465530380558,0.3456322737917449
619,Bedminster Down Rd-CAZ-Lamppost by billboard,Urban Traffic,51.43157072422092,-2.613584066772064,0.19211472235267582
620,Bedminster Down Rd-CAZ-Roadsign by Winterstoke,Urban Traffic,51.433832973538316,-2.610795059688573,0.20192039235811143
621,West St-CAZ-Lamppost by Argus Rd,Urban Traffic,51.43748138218552,-2.605894333763173,0.21773433954966165
622,West St-CAZ-Lamppost opp Jamiesons,Urban Traffic,51.43961353814992,-2.603850522220722,0.22697612277235274
623,Bedminster Parade-CAZ-Lamppost by William Hill,Urban Traffic,51.4436278862123,-2.595917830110687,0.24437622632589082
624,York Rd-CAZ-Sign after bridge,Urban Traffic,51.445639119279555,-2.591138219954094,0.2530938719053973
625,Bath Rd-CAZ-Lamppost by Bus Lane,Urban Traffic,51.44458446712751,-2.579125429852657,0.24852250530405792
626,Bath Rd-CAZ-Lamppost by Kings Road,Urban Traffic,51.44064552834701,-2.560862019527498,0.2314492616274322
627,A4044 Roundabout-CAZ-Lamppost,Urban Traffic,51.45629418655333,-2.585633760686648,0.2992780271038898
628,Victoria St-CAZ-Lamppost opp Mitchell Lane,Urban Traffic,51.451695929902094,-2.588165283131721,0.2793469845898879
629,Lamb Street-CAZ-One way sign by Church,Urban Traffic,51.45788868882387,-2.581422919567347,0.30618936219309506
630,Stokes Croft-CAZ-Lamppost,Urban Traffic,51.464025282874175,-2.591259968667102,0.3327882943938292
631,Ashley Road-CAZ-Lamppost opp Drumd Rd,Urban Traffic,51.465367686272565,-2.588945414965653,0.3386069124557541
632,Sussex Place-CAZ-Lamppost,Urban Traffic,51.46761831507925,-2.581186555943573,0.34836221361260195
633,Ashley Down Rd-CAZ-Lamppost,Urban Traffic,51.47391025433953,-2.583296849249269,0.37563448621584256
634,Gloucester Rd-CAZ-Lamppost opp Baths,Urban Traffic,51.475275169899945,-2.592572243338271,0.3815506827498833
635,Cheltenham Rd-CAZ-Post by Papa Johns,Urban Traffic,51.46779556262392,-2.592446076741521,0.34913048920404177
636,Merchants Rd-CAZ-Lamppost by house,Urban Traffic,51.44942888421883,-2.619706003688854,0.26952052484190236
637,Wells Rd-CAZ-Lamppost by Red Lion Carpets,Urban Traffic,51.42979169722748,-2.565056914906514,0.1844035689027536
638,Bath Rd-CAZ-Lamppost,Urban Traffic,51.43365708555194,-2.548074677576687,0.20115800974226525
639,Wells Rd-CAZ-Lamppost,Urban Traffic,51.432150124288825,-2.566337762506465,0.19462611922804354
640,Church Rd-CAZ-Post by Barwaaqo Cafe,Urban Traffic,51.45848196771926,-2.564937151736055,0.30876091654151183
641,Whitehall Rd-CAZ-Lamppost by house,Urban Traffic,51.46227039216121,-2.56237845500794,0.32518175912177805
642,Stapleton Rd-CAZ-Lamppost by house,Urban Traffic,51.46526727884497,-2.571109438135324,0.3381716986649822
643,Mina Rd-CAZ-Lamppost by house,Urban Traffic,51.46766400160981,-2.575573003797525,0.34856024087641485
644,Muller Rd-CAZ-Lamppost opp LA DT,Urban Traffic,51.474935630651224,-2.559136529721843,0.38007895732985786
645,Stapleton Rd-CAZ-Lamppost,Urban Traffic,51.477105540227164,-2.562244304431883,0.3894843827529882
646,Fishponds Rd-CAZ-Lamppost,Urban Traffic,51.47427416198003,-2.554506995273512,0.3772118358950927
647,Fishponds Rd-CAZ-Lamppost,Urban Traffic,51.48046109313174,-2.530839426797517,0.4040289531568737
648,Muller Rd-CAZ-Lamppost,Urban Traffic,51.48830058212295,-2.582083789278802,0.43800904609709956
649,Muller Rd-CAZ-Lamppost,Urban Traffic,51.47588407064558,-2.565756574937106,0.3841899496652584
650,Linden Rd-CAZ-Lamppost by house,Urban Traffic,51.47853567947208,-2.607171950189412,0.3956832899157119
651,Linden Rd-CAZ-Lamppost by house,Urban Traffic,51.47936019779016,-2.609400378547286,0.3992571464656145
652,Whiteladies Rd-CAZ-Lamppost after petrol station,Urban Traffic,51.47067626469177,-2.616079556013699,0.36161682908005566
653,Westbury Rd-CAZ-Lamppost by hospital,Urban Traffic,51.47274928292726,-2.616813056274383,0.37060228111497057
654,Upper Maudlin St-CAZ-Lamppost opp BRI,Urban Traffic,51.458580727366716,-2.597507626024548,0.3091889880654471
655,Upper Maudlin St-CAZ-Lamppost by BRI,Urban Traffic,51.45876739518829,-2.597927438002308,0.3099980956403312
656,College Green-CAZ-Post by Toni&Guy,Urban Traffic,51.45315773210221,-2.599509008050331,0.28568313413686935
657,Clift House Road-CAZ-Telegraph pole clift house road,Urban Traffic,51.444889404038015,-2.619544006088512,0.24984424764866753
658,Temple Way Bridge-CAZ-Lamppost Temple Way Bridge,Urban Traffic,51.452788771529946,-2.58540202083578,0.28408388263578827
659,Bristol Hill-CAZ-Lamppost Bristol Hill,Urban Traffic,51.43438936682869,-2.552974103462193,0.2043320668613108
660,North View Downs Park West,Urban Traffic,51.47984490561005,-2.61641931421605,0.4013581018706531
661,Marlborough Street,Urban Traffic,51.45961855659936,-2.596758418330413,0.3136874360919482
662,Marlborough Street - co - located,Urban Traffic,51.45961855659936,-2.596758418330413,0.3136874360919482
663,Troopers Hill Opposite No 30,Urban Background,51.45718330071025,-2.532985280882394,0.3031318728992526
664,Netham Lock Junction,Urban Background,51.45270257432992,-2.555123598789928,0.2837102627644712
665,Blackswarth Road Opposite St Patrick's School,Urban Background,51.457772222842515,-2.553471977156808,0.3056845429535612
666,Beaufort Road Opposite No 109,Urban Background,51.4583276019134,-2.548139073435406,0.30809182134466573
667,Victoria Avenue Opposite No 90,Urban Background,51.45766931387978,-2.5600193357904,0.3052384863136274
668,Avonvale Road Opposite Bristol Futures Academy,Urban Background,51.45542073359225,-2.56207881649369,0.29549206441809633
669,Morely Street/Bright Street Ped Crossing,Urban Background,51.45683912227274,-2.56441327688459,0.30164003901726577
670,Russel Town Avenue Opposite Pheonix Social Enterprise Club,Urban Background,51.45996863099536,-2.56427894254518,0.3152048258766027
671,Church Road Miss Millies,Urban Traffic,51.459266085504495,-2.558887331717071,0.31215965786869426
672,Victoria Parade Opposite No 39,Urban Background,51.46068383107214,-2.557580421804174,0.3183048449093403
673,Lyppiatt Road Opposite No 25,Urban Background,51.4607387075634,-2.555479656214334,0.3185427058560696
674,Stapleton Road HE,Urban Traffic,51.477267492979024,-2.562217510089183,0.39018636340074364
675,Glenfrome Road stonewall LP HE,Urban Traffic,51.479146971715274,-2.562111145399483,0.3983329227247627
676,B4058 East of M32 stonewall LP HE,Urban Traffic,51.48045550226256,-2.561076199883715,0.4040047196571472
677,Napier Road 20mph LP HE,Urban Traffic,51.47179440334507,-2.565547520825524,0.36646337652745903
678,505 Stapleton Road Easton LP HE,Urban Traffic,51.47216918517814,-2.564256488589554,0.36808786015568795
679,Stapleton Rd Freemantle rd LP HE,Urban Traffic,51.47412056086233,-2.562279448625551,0.37654605522228923
680,Stapleton Rd Heath St Cycles sign HE,Urban Traffic,51.4735519980886,-2.562733135571174,0.37408163236063063
681,New Gatton Rd barrier LP HE,Urban Traffic,51.46850883956647,-2.571955994186926,0.3522221724536853
682,Stairway bridge M32 J3 HE,Urban Traffic,51.46800315143816,-2.572410309259783,0.35003027836238854
683,Fox Rd 26 LP HE,Urban Traffic,51.467937411121575,-2.571142696929541,0.3497453284032757
684,Lower Ashley Rd Millpond Sch LP HE,Urban Traffic,51.466774312241625,-2.571819131608045,0.344703901840442
685,Mina Rd M32 AAPEX LP HE,Urban Traffic,51.467512938385596,-2.575211218688166,0.34790546064718597
686,Gable Rd M32 barrier LP HE,Urban Traffic,51.46746400936166,-2.574188546646436,0.34769337886703694
687,Portway - Sylvan Way,Roadside,51.48688488363655,-2.656087833180355,0.4318727320851454
688,Portway - Roman Way,Roadside,51.47951649494454,-2.648941470586925,0.3999346130502593
689,Portway - Bridge Valley Road,Roadside,51.45893424866651,-2.631177011467875,0.3107213183789128
